{"type": "FeatureCollection", "features": [{"type": "Feature", "properties": {"id": 17, "name": "AMSAT-UK / BATC / UKuG", "description": "Amateur Radio demonstrations and talks.\r\nMembers representing AMSAT-UK (Amateur Satellites), BATC (British Amateur Television Club), UKuG (UK Microwave Group).\r\n", "url": "https://wiki.batc.org.uk/EMFcamp_2024"}, "geometry": {"type": "Point", "coordinates": [-2.375792653149375, 52.04109305666961]}}, {"type": "Feature", "properties": {"id": 39, "name": "Furry High Commission", "description": "A village for EMF's Furry community. If you're a furry, or interested in the furry fandom, come and say hi. Many of our number are particularly interested in electronics and radio. We're also a very LGBTQ group.\r\n\r\nWe are a worksh...", "url": null}, "geometry": {"type": "Point", "coordinates": [-2.3753431582415203, 52.04189257877408]}}, {"type": "Feature", "properties": {"id": 9, "name": "Shark Corner", "description": "Glauca and Co", "url": "https://glauca.digital/"}, "geometry": {"type": "Point", "coordinates": [-2.3736535680050395, 52.043112980542105]}}, {"type": "Feature", "properties": {"id": 34, "name": "East Essex Hackspace CIO", "description": "People from Essex.  Not recognisable from antics as demonstrated on TOWIE.  Feel free to pop by and say hello or come camp with us.\r\n\r\nWe are currently planning a pre-setup LAN party for people to drop in, with some old LAN party ...", "url": "https://wiki.emfcamp.org/2024/wiki/EEH_Village"}, "geometry": {"type": "Point", "coordinates": [-2.374480798759123, 52.0433937508094]}}, {"type": "Feature", "properties": {"id": 23, "name": "Shonkbot", "description": "Friends and fans of the Shonkbot, or any sort of low-rent robotics really", "url": "https://wiki.emfcamp.org/2024/wiki/Shonkbot"}, "geometry": {"type": "Point", "coordinates": [-2.3774427939381724, 52.040718072652595]}}, {"type": "Feature", "properties": {"id": 16, "name": "Hacking Hamlet", "description": "Too small to be a village. \r\n\r\nMaking, fixing, cooking, and enough lights to be visible from space (probably)", "url": "https://wiki.emfcamp.org/2024/wiki/Hacking_Hamlet"}, "geometry": {"type": "Point", "coordinates": [-2.3764721507291426, 52.04053302905666]}}, {"type": "Feature", "properties": {"id": 2, "name": "Test Village [Plz Ignore]", "description": "Not actually a test, we're real people. From South Oxfordshire and more. A combination of Harwell Hackers and Makers and our friends.", "url": "https://harwellmakers.com"}, "geometry": {"type": "Point", "coordinates": [-2.3761604366036124, 52.04009243349401]}}, {"type": "Feature", "properties": {"id": 10, "name": "Field-FX ", "description": "A demoparty at emf.", "url": null}, "geometry": {"type": "Point", "coordinates": [-2.3760873864113137, 52.04333517398396]}}, {"type": "Feature", "properties": {"id": 8, "name": "Lockpicking Village", "description": "This year will see the return of the ever popular lockpicking village! Come and learn to pick locks and show off your skills. There will be members of The Open Organisation Of Lockpickers (TOOOL) from UK and the Netherlands to sho...", "url": "https://toool.uk/"}, "geometry": {"type": "Point", "coordinates": [-2.3776026989887953, 52.04098945882416]}}, {"type": "Feature", "properties": {"id": 28, "name": "Scottish Consulate", "description": "Consular Chaos, Deep Fried Buckfast, big dinks and big wiggles", "url": "https://consulate.scot"}, "geometry": {"type": "Point", "coordinates": [-2.3756295932040246, 52.04329962667447]}}, {"type": "Feature", "properties": {"id": 11, "name": "London Aerospace", "description": "The increasingly misnamed London Aerospace. All things drone and model flight-related. We're a friendly bunch, so feel free to swing by and say hello, or simply stare at our mesmerising RGB village sign.", "url": null}, "geometry": {"type": "Point", "coordinates": [-2.375005990396886, 52.04324799636092]}}, {"type": "Feature", "properties": {"id": 38, "name": "Food Hacking Base", "description": "We are bunch of hackers from all around the world who are into food, drinks and bio, experimenting wildly and enjoying each others presence. ", "url": "https://foodhackingbase.org/wiki/Fhb_emf2024"}, "geometry": {"type": "Point", "coordinates": [-2.3771408563709144, 52.04093661671263]}}, {"type": "Feature", "properties": {"id": 37, "name": "Moose", "description": "We are just a bunch of people that got connected by crazy and various circumstances\r\n\r\nJust a bunch of geeks sharing a story about moose (or possibly meese) who connected by crazy and various circumstances, in a spontaneous and st...", "url": null}, "geometry": {"type": "Point", "coordinates": [-2.3758333237408635, 52.04080614254369]}}, {"type": "Feature", "properties": {"id": 12, "name": "Edinburgh Hacklab", "description": "We are a hackerspace based in Edinburgh, bringing our members, friends, and their hacks. All welcome!", "url": "https://edinburghhacklab.com/"}, "geometry": {"type": "Point", "coordinates": [-2.374704191148311, 52.04262440407331]}}, {"type": "Feature", "properties": {"id": 14, "name": "ECS", "description": "The ECS Village is for all of the lovely people from the University of Southampton!", "url": null}, "geometry": {"type": "Point", "coordinates": [-2.3753257260326563, 52.040979005220976]}}, {"type": "Feature", "properties": {"id": 58, "name": "Habville", "description": "High altitude \ud83c\udf88 and \ud83d\ude80", "url": null}, "geometry": {"type": "Point", "coordinates": [-2.3756897788242384, 52.04065939965818]}}, {"type": "Feature", "properties": {"id": 43, "name": "Milliways", "description": "Milliways is a group of information security specialists at hacker camps. \r\n\r\nWe bring large infrastructure which we plan and built ourselves. The intercontinental logistics include self constructed installations.", "url": "https://milliways.info"}, "geometry": {"type": "Point", "coordinates": [-2.3760015857818644, 52.042891257809885]}}, {"type": "Feature", "properties": {"id": 45, "name": "York Hackspace", "description": "Just York Hackspace and associated folks camping in a field in Herefordshire.", "url": "https://york.hackspace.org.uk"}, "geometry": {"type": "Point", "coordinates": [-2.376182505945252, 52.04095894825673]}}, {"type": "Feature", "properties": {"id": 53, "name": "Irish Embassy", "description": "Loose collective of people with some connection to / interest in Ireland, who travel to hacker/maker events and pool resources to create shared spaces while there.\r\n\r\nYou don't need to be from Ireland. You don't need to be living ...", "url": "https://wiki.emfcamp.org/2024/wiki/Irish_Embassy"}, "geometry": {"type": "Point", "coordinates": [-2.375910658177162, 52.043013939044926]}}, {"type": "Feature", "properties": {"id": 66, "name": "Gothic Valley", "description": "Nothing special but we might draw bats", "url": ""}, "geometry": {"type": "Point", "coordinates": [-2.3753584728745523, 52.04113824937386]}}, {"type": "Feature", "properties": {"id": 64, "name": "Hardware Hacking Area", "description": "The Hardware Hacking Area is a place available for all participants of EMF Camp -- all day and all night.  There are soldering tools and other tools for creating and fixing, as well as for the many workshops scheduled throughout E...", "url": null}, "geometry": {"type": "Point", "coordinates": [-2.3756232485202133, 52.04126476101712]}}, {"type": "Feature", "properties": {"id": 47, "name": "lowland village", "description": "Group of buddies from the lowlands; the Netherlands and Flanders, with a broad variety of interests. sysadmin, HAM radio, experimental music making and (retro) gaming.", "url": ""}, "geometry": {"type": "Point", "coordinates": [-2.3740161456001942, 52.042540525032024]}}, {"type": "Feature", "properties": {"id": 40, "name": "Unnamed Village", "description": "A large group of friends, including a team from the Northern Ireland Raspberry Jam.", "url": ""}, "geometry": {"type": "Point", "coordinates": [-2.3767024348206007, 52.040861302169816]}}, {"type": "Feature", "properties": {"id": 41, "name": "Treadz 'n' Webz", "description": "Group of friends with some drop in workshops: \r\nThreadz: tablet weaving\r\nWebz: Xeon PHI nodes to play with", "url": "https://wiki.emfcamp.org/2024/wiki/Treadz_%27n%27_Webz"}, "geometry": {"type": "Point", "coordinates": [-2.378619112495926, 52.040451463777146]}}, {"type": "Feature", "properties": {"id": 77, "name": "Content Creators Village", "description": "Content Creators Village showing displaying items from various media.", "url": null}, "geometry": {"type": "Point", "coordinates": [-2.378013184724807, 52.04015575970692]}}, {"type": "Feature", "properties": {"id": 29, "name": "The Northern Quarter", "description": "This is the village where Maker Space (of Newcastle and Gateshead) members and friends will be gathering. Our only real policy is \"Flat caps optional, being nice mandatory\". That and the global not being on fire thing. This year w...", "url": "https://wiki.emfcamp.org/2024/wiki/The_Northern_Quarter"}, "geometry": {"type": "Point", "coordinates": [-2.374928913659488, 52.042825065455645]}}, {"type": "Feature", "properties": {"id": 70, "name": "Koala Programming", "description": "A small group formed when two loosely connected communities accidentally realised they'd both have attendees at EMF. Not really anything to do with Koalas, and not everyone is a programmer either. Naming things is hard!", "url": ""}, "geometry": {"type": "Point", "coordinates": [-2.375718779346215, 52.04041870176724]}}, {"type": "Feature", "properties": {"id": 1, "name": "Maths Village", "description": "The Maths Village is run by a group of mathematicians and maths communicators from all over the UK - including researchers, authors, presenters, YouTubers and hobbyists. This year the Maths Village will be one of EMF's Workshop Vi...", "url": "https://wiki.emfcamp.org/2024/wiki/Maths_Village"}, "geometry": {"type": "Point", "coordinates": [-2.3777065392281997, 52.04079973386922]}}, {"type": "Feature", "properties": {"id": 33, "name": "Nottingham Hackspace", "description": "Nottinghack is a Nottingham based group for hackers, makers and crafty creative people! Nottinghack are helping run Workshop 1 and will be hosting several workshops there by our members, including a morning pop up cafe 8:30 - 9:30...", "url": "https://wiki.emfcamp.org/2024/wiki/Nottinghack"}, "geometry": {"type": "Point", "coordinates": [-2.375176614972645, 52.04269926644852]}}, {"type": "Feature", "properties": {"id": 73, "name": "Odin's Tesla Fest", "description": "Odin is a large musical Tesla coil that will be generating up to 3m of sparks flavoured with industrial drum'n'bass. Plus other guest Tesla coils TBD. Anyone with an interest in high voltage or power electronics welcome. Odin acce...", "url": null}, "geometry": {"type": "Point", "coordinates": [-2.3772390204559883, 52.0433034327157]}}, {"type": "Feature", "properties": {"id": 15, "name": "100 Acre Wood (of Geeks)", "description": "Pooh, Eeyore, Rabbit and more welcome you to the RGB tents for hot drinks, honey, talk and trying new things. Drop by, create or collaborate on an idea, experiment with a cricut, screen printing, laser cutter, and other gadgets. P...", "url": "https://wiki.emfcamp.org/2024/wiki/100_Acre_Wood_(of_Geeks)"}, "geometry": {"type": "Point", "coordinates": [-2.37605438202408, 52.040642219933346]}}, {"type": "Feature", "properties": {"id": 35, "name": "EMF Communications HQ", "description": "Amateur Radio, Telephones, Communications, Retro Computers, etc. Made up of the EMF Hams (G1EMF), MastCar ARC (G1CAR), CuTEL, and friends. In previous years we were the \"Amateur Radio Village\"", "url": "https://echq.org.uk/"}, "geometry": {"type": "Point", "coordinates": [-2.3741230967545732, 52.043194936313455]}}, {"type": "Feature", "properties": {"id": 68, "name": "Bodgeham-on-Wye", "description": "In the care of Hackerly Parish Council.", "url": "https://wiki.emfcamp.org/2024/wiki/Bodgeham-on-Wye"}, "geometry": {"type": "Point", "coordinates": [-2.3756835224867814, 52.0421329706968]}}, {"type": "Feature", "properties": {"id": 72, "name": "TWASK", "description": "We're TWASK (FKA: AIA), a bunch of friends from the London area. You'll find us camping somewhere in proximity to the Scottish Consulate and Milliways - usually we fly a Pride Kubernetes flag. As with previous years, we can only a...", "url": null}, "geometry": {"type": "Point", "coordinates": [-2.376537458262021, 52.04293250676372]}}, {"type": "Feature", "properties": {"id": 81, "name": "League of Dibs", "description": "A Group of 8 - 15 friends from around the Reading Area wanting to set up a village together. ", "url": ""}, "geometry": {"type": "Point", "coordinates": [-2.3752852783902654, 52.04144572364066]}}, {"type": "Feature", "properties": {"id": 82, "name": "Spaced Out", "description": "Loud music at times, Chilling at others. Map Space claim", "url": null}, "geometry": {"type": "Point", "coordinates": [-2.3751444977418146, 52.041440983088734]}}]}
